[
  {
    "name": "Atlas Brunch & Pasta 亞斯義大利麵",
    "coords": { "lat": 25.0708248, "lng": 121.6081639 }
  },
  {
    "name": "森優咖啡 Tribu Cafe",
    "coords": { "lat": 25.0241737, "lng": 121.554753 }
  },
  {
    "name": "BACKMOUNT.後山咖啡",
    "coords": { "lat": 25.039684, "lng": 121.591435 }
  },
  {
    "name": "咖啡俱樂部 COFFEE CLUB",
    "coords": { "lat": 25.0473878, "lng": 121.5109371 }
  },
  {
    "name": "HSQ COFFEE",
    "coords": { "lat": 25.0691175, "lng": 121.5926845 }
  },
  {
    "name": "安好食 和平店",
    "coords": { "lat": 25.021664, "lng": 121.5421349 }
  },
  {
    "name": "Q Burger 中山農安店(直營)",
    "coords": { "lat": 25.0645542, "lng": 121.5345043 }
  },
  {
    "name": "Second Floor 貳樓西湖店",
    "coords": { "lat": 25.083315, "lng": 121.569421 }
  },
  {
    "name": "Timama kitchen",
    "coords": { "lat": 25.0755428, "lng": 121.5774855 }
  },
  {
    "name": "象園咖啡內湖店",
    "coords": { "lat": 25.080771, "lng": 121.5857379 }
  }
]
